[
    {
        "id": 1,
        "s_id": "65010001",
        "s_name": "สมชาย ใจดี",
        "หลักสูตร": "ภูมิศาสตร์",
        "ภาควิชา": "ภูมิศาสตร์",
        "คณะ": "สังคมศาสตร์",
        "จังหวัด": "พิษณุโลก",
        "lat": "16.8219",
        "long": "100.2659"
    },
    {
        "id": 2,
        "s_id": "65010002",
        "s_name": "สมหญิง รักเรียน",
        "หลักสูตร": "ภูมิศาสตร์",
        "ภาควิชา": "ภูมิศาสตร์",
        "คณะ": "สังคมศาสตร์",
        "จังหวัด": "นครสวรรค์",
        "lat": "15.6949",
        "long": "100.1373"
    },
    {
        "id": 3,
        "s_id": "65010003",
        "s_name": "วิชาภ เก่งมาก",
        "หลักสูตร": "ภูมิศาสตร์",
        "ภาควิชา": "ภูมิศาสตร์",
        "คณะ": "สังคมศาสตร์",
        "จังหวัด": "อุตรดิตถ์",
        "lat": "17.6200",
        "long": "100.0992"
    },
    {
        "id": 4,
        "s_id": "65010004",
        "s_name": "มานี ขยันหา",
        "หลักสูตร": "ภูมิศาสตร์",
        "ภาควิชา": "ภูมิศาสตร์",
        "คณะ": "สังคมศาสตร์",
        "จังหวัด": "เพชรบูรณ์",
        "lat": "16.4192",
        "long": "101.1609"
    },
    {
        "id": 5,
        "s_id": "65010005",
        "s_name": "ประยุทธ์ ฉลาดมาก",
        "หลักสูตร": "ภูมิศาสตร์",
        "ภาควิชา": "ภูมิศาสตร์",
        "คณะ": "สังคมศาสตร์",
        "จังหวัด": "ลำปาง",
        "lat": "18.2888",
        "long": "99.4907"
    }
]